[
    {
        "coordinates":[
            0.018156441109559263,
            0.49759494354124617
        ],
        "name":"Calicut"
    },
    {
        "coordinates":[
            0.649290579005331,
            0.9037694865732202
        ],
        "name":"Mavoor"
    },
    {
        "coordinates":[
            0.9677705701771468,
            0.6577783938040771
        ],
        "name":"Karanthoor"
    },
    {
        "coordinates":[
            0.7936568733225584,
            0.5623644494063311
        ],
        "name":" Main Gate Road"
    },
    {
        "coordinates": [0.43400272200628925, 0.043206540833058034],
        "name": "Mortuary"
      },
      {
        "coordinates": [0.5949853685192735, 0.04491491116554566],
        "name": "Student College"
      }
]